[{"tfidf_total": 1.0233984088532686, "poi": {"xid": "N409552086", "name": "Le Grenier de Notre-Dame", "dist": 170.39945224, "rate": 7, "osm": "node/409552086", "wikidata": "Q2981", "kinds": "religion,architecture,historic_architecture,cathedrals,churches,interesting_places,restaurants,foods,catholic_churches,tourist_facilities,other_buildings_and_structures", "point": {"lon": 2.348707914352417, "lat": 48.85187911987305}}}, {"tfidf_total": 0.8795300431744919, "poi": {"xid": "N4788616221", "name": "Saint-S\u00e9verin", "dist": 282.46178421, "rate": 7, "osm": "node/4788616221", "wikidata": "Q1710376", "kinds": "religion,architecture,historic_architecture,churches,interesting_places,restaurants,foods,tourist_facilities,other_buildings_and_structures,other_churches", "point": {"lon": 2.3453047275543213, "lat": 48.85234832763672}}}, {"tfidf_total": 0.8795300431744919, "poi": {"xid": "N2575207506", "name": "Saint-S\u00e9verin", "dist": 294.58493832, "rate": 7, "osm": "node/2575207506", "wikidata": "Q1710376", "kinds": "religion,architecture,historic_architecture,churches,interesting_places,restaurants,foods,tourist_facilities,other_buildings_and_structures,other_churches", "point": {"lon": 2.3450276851654053, "lat": 48.85250473022461}}}, {"tfidf_total": 0.8795300431744919, "poi": {"xid": "N1108414665", "name": "Saint-S\u00e9verin", "dist": 308.50761364, "rate": 7, "osm": "node/1108414665", "wikidata": "Q1710376", "kinds": "religion,architecture,historic_architecture,churches,interesting_places,restaurants,foods,tourist_facilities,other_buildings_and_structures,other_churches", "point": {"lon": 2.3445966243743896, "lat": 48.85336685180664}}}, {"tfidf_total": 0.8164965809277261, "poi": {"xid": "N4074851973", "name": "Rendez-Vous Saint-Germain", "dist": 373.7053894, "rate": 1, "osm": "node/4074851973", "wikidata": "Q42296669", "kinds": "cultural,cinemas,theatres_and_entertainments,interesting_places,restaurants,foods,tourist_facilities", "point": {"lon": 2.3451132774353027, "lat": 48.85109329223633}}}, {"tfidf_total": 0.7158233496585658, "poi": {"xid": "Q22921407", "name": "24 rue Chanoinesse, Paris", "dist": 137.30020842, "rate": 6, "wikidata": "Q22921407", "kinds": "historic_architecture,architecture,interesting_places,foods,bars,tourist_facilities,other_buildings_and_structures", "point": {"lon": 2.350277900695801, "lat": 48.85416793823242}}}, {"tfidf_total": 0.7158233496585658, "poi": {"xid": "N21662099", "name": "Notre-Dame", "dist": 201.16463456, "rate": 7, "osm": "node/21662099", "wikidata": "Q2981", "kinds": "railway_stations,industrial_facilities,religion,cathedrals,churches,interesting_places,catholic_churches", "point": {"lon": 2.350100040435791, "lat": 48.8518180847168}}}, {"tfidf_total": 0.7158233496585658, "poi": {"xid": "N1133077162", "name": "La Bouteille d'Or", "dist": 216.0874552, "rate": 6, "osm": "node/1133077162", "wikidata": "Q22924449", "kinds": "architecture,historic_architecture,interesting_places,restaurants,foods,tourist_facilities,other_buildings_and_structures", "point": {"lon": 2.3496809005737305, "lat": 48.85155487060547}}}, {"tfidf_total": 0.7158233496585658, "poi": {"xid": "N8843031249", "name": "Le Montebello", "dist": 240.3593622, "rate": 6, "osm": "node/8843031249", "wikidata": "Q22924449", "kinds": "architecture,historic_architecture,interesting_places,restaurants,foods,tourist_facilities,other_buildings_and_structures", "point": {"lon": 2.3500146865844727, "lat": 48.851402282714844}}}, {"tfidf_total": 0.7158233496585658, "poi": {"xid": "N2534780320", "name": "Saint-Michel", "dist": 253.60147853, "rate": 7, "osm": "node/2534780320", "wikidata": "Q1598555", "kinds": "railway_stations,industrial_facilities,architecture,historic_architecture,interesting_places,restaurants,foods,tourist_facilities,other_buildings_and_structures", "point": {"lon": 2.345376968383789, "lat": 48.85309600830078}}}, {"tfidf_total": 0.7158233496585658, "poi": {"xid": "Q22980192", "name": "Cabaret du P\u00e8re Lunette", "dist": 282.80831415, "rate": 6, "wikidata": "Q22980192", "kinds": "historic_architecture,architecture,interesting_places,foods,bars,tourist_facilities,other_buildings_and_structures", "point": {"lon": 2.347888946533203, "lat": 48.8509407043457}}}, {"tfidf_total": 0.7158233496585658, "poi": {"xid": "N5409299006", "name": "La Grange Saint-Michel", "dist": 299.47619289, "rate": 7, "osm": "node/5409299006", "wikidata": "Q1598555", "kinds": "railway_stations,industrial_facilities,architecture,historic_architecture,interesting_places,restaurants,foods,tourist_facilities,other_buildings_and_structures", "point": {"lon": 2.3450043201446533, "lat": 48.852420806884766}}}, {"tfidf_total": 0.7158233496585658, "poi": {"xid": "N2534780376", "name": "Boulangerie Saint Michel", "dist": 301.5068878, "rate": 7, "osm": "node/2534780376", "wikidata": "Q1598555", "kinds": "railway_stations,industrial_facilities,architecture,historic_architecture,interesting_places,shops,bakeries,tourist_facilities,other_buildings_and_structures", "point": {"lon": 2.3447110652923584, "lat": 48.853145599365234}}}, {"tfidf_total": 0.7158233496585658, "poi": {"xid": "Q3113466", "name": "Grand'Salle du Palais de la Cit\u00e9", "dist": 315.11109562, "rate": 7, "wikidata": "Q3113466", "kinds": "historic_architecture,architecture,interesting_places,shops,marketplaces,tourist_facilities,other_buildings_and_structures", "point": {"lon": 2.3454298973083496, "lat": 48.855167388916016}}}, {"tfidf_total": 0.7158233496585658, "poi": {"xid": "N2529721883", "name": "Le Chalet Saint-Michel", "dist": 377.3985633, "rate": 7, "osm": "node/2529721883", "wikidata": "Q1598555", "kinds": "railway_stations,industrial_facilities,architecture,historic_architecture,interesting_places,restaurants,foods,tourist_facilities,other_buildings_and_structures", "point": {"lon": 2.344221353530884, "lat": 48.851863861083984}}}, {"tfidf_total": 0.7158233496585658, "poi": {"xid": "N3181077161", "name": "Chez Julien", "dist": 488.22486279, "rate": 6, "osm": "node/3181077161", "wikidata": "Q22921399", "kinds": "architecture,historic_architecture,interesting_places,restaurants,foods,shops,bakeries,tourist_facilities,other_buildings_and_structures", "point": {"lon": 2.355135917663574, "lat": 48.8547477722168}}}, {"tfidf_total": 0.7158233496585658, "poi": {"xid": "N7403324288", "name": "Boulangerie Kayser", "dist": 504.71856978, "rate": 6, "osm": "node/7403324288", "wikidata": "Q22924393", "kinds": "architecture,historic_architecture,interesting_places,shops,bakeries,tourist_facilities,other_buildings_and_structures", "point": {"lon": 2.3495802879333496, "lat": 48.848899841308594}}}, {"tfidf_total": 0.7158233496585658, "poi": {"xid": "W47273133", "name": "Piscine Pontoise", "dist": 527.3913197, "rate": 7, "osm": "way/47273133", "wikidata": "Q3389221", "kinds": "sport,architecture,historic_architecture,interesting_places,pools,other_buildings_and_structures", "point": {"lon": 2.351752996444702, "lat": 48.84908676147461}}}, {"tfidf_total": 0.7158233496585658, "poi": {"xid": "N699897156", "name": "77 rue de la Verrerie, Paris", "dist": 586.28881325, "rate": 6, "osm": "node/699897156", "wikidata": "Q22921818", "kinds": "architecture,historic_architecture,interesting_places,shops,bakeries,tourist_facilities,other_buildings_and_structures", "point": {"lon": 2.3517203330993652, "lat": 48.85831832885742}}}, {"tfidf_total": 0.7158233496585658, "poi": {"xid": "N3475257296", "name": "Ch\u00e2telet", "dist": 587.64090868, "rate": 7, "osm": "node/3475257296", "wikidata": "Q601484", "kinds": "railway_stations,industrial_facilities,architecture,historic_architecture,interesting_places,restaurants,foods,tourist_facilities,other_buildings_and_structures", "point": {"lon": 2.3457114696502686, "lat": 48.85828399658203}}}, {"tfidf_total": 0.5719549839797892, "poi": {"xid": "N1905655545", "name": "Le Petit Pont", "dist": 169.40035667, "rate": 3, "osm": "node/1905655545", "wikidata": "Q1323635", "kinds": "bridges,architecture,interesting_places,stone_bridges,restaurants,foods,tourist_facilities", "point": {"lon": 2.3467698097229004, "lat": 48.852684020996094}}}, {"tfidf_total": 0.5719549839797892, "poi": {"xid": "Q3527623", "name": "Th\u00e9\u00e2tre de Cluny", "dist": 400.72096746, "rate": 2, "wikidata": "Q3527623", "kinds": "architecture,historic_architecture,theatres_and_entertainments,cultural,cinemas,interesting_places,destroyed_objects", "point": {"lon": 2.3451499938964844, "lat": 48.850730895996094}}}, {"tfidf_total": 0.47128175271062883, "poi": {"xid": "W201611261", "name": "Cathedral of Notre Dame", "dist": 105.75068564, "rate": 7, "osm": "way/201611261", "wikidata": "Q2981", "kinds": "religion,architecture,historic_architecture,cathedrals,churches,interesting_places,destroyed_objects,catholic_churches", "point": {"lon": 2.350050210952759, "lat": 48.852935791015625}}}, {"tfidf_total": 0.4514434248734794, "poi": {"xid": "N1440131521", "name": "Thermes de Cluny", "dist": 511.85629195, "rate": 7, "osm": "node/1440131521", "wikidata": "Q2669368", "kinds": "architecture,historic_architecture,historic,archaeology,interesting_places,baths_and_saunas,saunas,other_archaeological_sites,amusements,other_buildings_and_structures", "point": {"lon": 2.3432741165161133, "lat": 48.85060119628906}}}, {"tfidf_total": 0.4082482904638631, "poi": {"xid": "Q3162511", "name": "jardin de la place Jean-Paul-II", "dist": 45.69947058, "rate": 3, "wikidata": "Q3162511", "kinds": "gardens_and_parks,cultural,urban_environment,interesting_places", "point": {"lon": 2.3482000827789307, "lat": 48.85329818725586}}}, {"tfidf_total": 0.4082482904638631, "poi": {"xid": "W236820131", "name": "Square Ren\u00e9-Viviani", "dist": 170.56282012, "rate": 3, "osm": "way/236820131", "wikidata": "Q3280855", "kinds": "urban_environment,gardens_and_parks,cultural,interesting_places", "point": {"lon": 2.347538709640503, "lat": 48.85212326049805}}}, {"tfidf_total": 0.4082482904638631, "poi": {"xid": "N1108414671", "name": "Caveau de la Huchette", "dist": 195.11306423, "rate": 3, "osm": "node/1108414671", "wikidata": "Q517995", "kinds": "nightclubs,cultural,theatres_and_entertainments,interesting_places,adult,music_venues,foods,bars,tourist_facilities", "point": {"lon": 2.346308469772339, "lat": 48.85279846191406}}}, {"tfidf_total": 0.4082482904638631, "poi": {"xid": "Q42296671", "name": "Styx", "dist": 210.27028742, "rate": 1, "wikidata": "Q42296671", "kinds": "cinemas,cultural,theatres_and_entertainments,interesting_places", "point": {"lon": 2.3460259437561035, "lat": 48.852935791015625}}}, {"tfidf_total": 0.4082482904638631, "poi": {"xid": "W53662739", "name": "", "dist": 211.15524783, "rate": 2, "osm": "way/53662739", "wikidata": "Q3162641", "kinds": "urban_environment,gardens_and_parks,cultural,interesting_places", "point": {"lon": 2.351465940475464, "lat": 48.8541259765625}}}, {"tfidf_total": 0.4082482904638631, "poi": {"xid": "N1904888779", "name": "Aux Trois Mailletz", "dist": 210.99228527, "rate": 3, "osm": "node/1904888779", "wikidata": "Q2873116", "kinds": "nightclubs,cultural,theatres_and_entertainments,interesting_places,adult,music_venues,foods,bars,tourist_facilities", "point": {"lon": 2.346611499786377, "lat": 48.85218048095703}}}, {"tfidf_total": 0.4082482904638631, "poi": {"xid": "W492182788", "name": "Square Restif de la Bretonne", "dist": 212.29775528, "rate": 3, "osm": "way/492182788", "wikidata": "Q16928491", "kinds": "urban_environment,gardens_and_parks,cultural,interesting_places", "point": {"lon": 2.349315643310547, "lat": 48.851531982421875}}}, {"tfidf_total": 0.4082482904638631, "poi": {"xid": "N3085086585", "name": "Galerie Mailletz", "dist": 213.43187426, "rate": 3, "osm": "node/3085086585", "wikidata": "Q2873116", "kinds": "nightclubs,cultural,museums,theatres_and_entertainments,interesting_places,adult,music_venues,foods,bars,art_galleries,tourist_facilities", "point": {"lon": 2.3465209007263184, "lat": 48.85221862792969}}}, {"tfidf_total": 0.4082482904638631, "poi": {"xid": "W20444455", "name": "Square Jean XXIII", "dist": 216.34091443, "rate": 3, "osm": "way/20444455", "wikidata": "Q3494657", "kinds": "urban_environment,gardens_and_parks,cultural,interesting_places", "point": {"lon": 2.351269245147705, "lat": 48.85234832763672}}}, {"tfidf_total": 0.4082482904638631, "poi": {"xid": "N2534780414", "name": "Le Relais de la Huchette", "dist": 217.12359836, "rate": 3, "osm": "node/2534780414", "wikidata": "Q517995", "kinds": "nightclubs,cultural,theatres_and_entertainments,interesting_places,adult,music_venues,foods,bars,tourist_facilities", "point": {"lon": 2.3459231853485107, "lat": 48.85295486450195}}}, {"tfidf_total": 0.4082482904638631, "poi": {"xid": "N264514896", "name": "Cit\u00e9", "dist": 229.06513415, "rate": 7, "osm": "node/264514896", "wikidata": "Q1094294", "kinds": "railway_stations,industrial_facilities,interesting_places", "point": {"lon": 2.3475475311279297, "lat": 48.85529708862305}}}, {"tfidf_total": 0.4082482904638631, "poi": {"xid": "N554267918", "name": "Studio Galande", "dist": 233.33341602, "rate": 3, "osm": "node/554267918", "wikidata": "Q3500983", "kinds": "cultural,cinemas,theatres_and_entertainments,interesting_places", "point": {"lon": 2.347106695175171, "lat": 48.85163497924805}}}, {"tfidf_total": 0.4082482904638631, "poi": {"xid": "Q42296670", "name": "Studio Saint-Severin", "dist": 260.44286263, "rate": 1, "wikidata": "Q42296670", "kinds": "cinemas,cultural,theatres_and_entertainments,interesting_places", "point": {"lon": 2.3456573486328125, "lat": 48.85232162475586}}}, {"tfidf_total": 0.4082482904638631, "poi": {"xid": "W20444469", "name": "Square de l\u2019\u00cele-de-France", "dist": 291.30083783, "rate": 3, "osm": "way/20444469", "wikidata": "Q3389977", "kinds": "urban_environment,gardens_and_parks,cultural,interesting_places", "point": {"lon": 2.352226734161377, "lat": 48.852088928222656}}}, {"tfidf_total": 0.4082482904638631, "poi": {"xid": "Q42296668", "name": "Studio de la Harpe", "dist": 308.03930756, "rate": 1, "wikidata": "Q42296668", "kinds": "cinemas,cultural,theatres_and_entertainments,interesting_places", "point": {"lon": 2.344853639602661, "lat": 48.85246658325195}}}, {"tfidf_total": 0.4082482904638631, "poi": {"xid": "W20105409", "name": "square Andr\u00e9-Lef\u00e8bvre", "dist": 312.14963413, "rate": 3, "osm": "way/20105409", "wikidata": "Q3494475", "kinds": "urban_environment,gardens_and_parks,cultural,interesting_places", "point": {"lon": 2.3454456329345703, "lat": 48.8516845703125}}}, {"tfidf_total": 0.4082482904638631, "poi": {"xid": "Q42296665", "name": "Quintette", "dist": 315.55740412, "rate": 1, "wikidata": "Q42296665", "kinds": "cinemas,cultural,theatres_and_entertainments,interesting_places", "point": {"lon": 2.3446431159973145, "lat": 48.852684020996094}}}, {"tfidf_total": 0.4082482904638631, "poi": {"xid": "W23071565", "name": "Square Danielle Mitterrand", "dist": 325.70912649, "rate": 3, "osm": "way/23071565", "wikidata": "Q3162524", "kinds": "urban_environment,gardens_and_parks,cultural,interesting_places", "point": {"lon": 2.350015640258789, "lat": 48.85059356689453}}}, {"tfidf_total": 0.4082482904638631, "poi": {"xid": "N1427838203", "name": "Espace Saint-Michel", "dist": 331.20181167, "rate": 3, "osm": "node/1427838203", "wikidata": "Q3058157", "kinds": "cultural,cinemas,theatres_and_entertainments,interesting_places", "point": {"lon": 2.3443171977996826, "lat": 48.853065490722656}}}, {"tfidf_total": 0.4082482904638631, "poi": {"xid": "Q42296667", "name": "Studio Alpha", "dist": 334.74877339, "rate": 1, "wikidata": "Q42296667", "kinds": "cinemas,cultural,theatres_and_entertainments,interesting_places", "point": {"lon": 2.344578266143799, "lat": 48.85226821899414}}}, {"tfidf_total": 0.4082482904638631, "poi": {"xid": "W25992413", "name": "Federico Garc\u00eda Lorca Garden", "dist": 356.8169972, "rate": 3, "osm": "way/25992413", "wikidata": "Q3495077", "kinds": "urban_environment,gardens_and_parks,cultural,interesting_places", "point": {"lon": 2.3532392978668213, "lat": 48.85471725463867}}}, {"tfidf_total": 0.4082482904638631, "poi": {"xid": "W468735435", "name": "Jardin des Combattants-de-la-Nueve", "dist": 357.06977892, "rate": 3, "osm": "way/468735435", "wikidata": "Q19945094", "kinds": "urban_environment,gardens_and_parks,cultural,interesting_places", "point": {"lon": 2.352106809616089, "lat": 48.85576629638672}}}, {"tfidf_total": 0.4082482904638631, "poi": {"xid": "Q42296666", "name": "Saint-Germain Huchette et Village", "dist": 381.57437076, "rate": 1, "wikidata": "Q42296666", "kinds": "cinemas,cultural,theatres_and_entertainments,interesting_places", "point": {"lon": 2.344151258468628, "lat": 48.851871490478516}}}, {"tfidf_total": 0.4082482904638631, "poi": {"xid": "N264515098", "name": "Saint-Michel", "dist": 386.87003516, "rate": 7, "osm": "node/264515098", "wikidata": "Q1598555", "kinds": "railway_stations,industrial_facilities,interesting_places", "point": {"lon": 2.3435308933258057, "lat": 48.853302001953125}}}, {"tfidf_total": 0.4082482904638631, "poi": {"xid": "N251125928", "name": "\u00cele Saint-Louis", "dist": 388.79765469, "rate": 2, "osm": "node/251125928", "wikidata": "Q60291500", "kinds": "historic,monuments_and_memorials,burial_places,interesting_places,other_burial_places,restaurants,foods,monuments,tourist_facilities", "point": {"lon": 2.354095220565796, "lat": 48.85329818725586}}}, {"tfidf_total": 0.4082482904638631, "poi": {"xid": "Q3162597", "name": "jardin du port de la Tournelle", "dist": 442.76871236, "rate": 3, "wikidata": "Q3162597", "kinds": "gardens_and_parks,cultural,urban_environment,interesting_places", "point": {"lon": 2.353219985961914, "lat": 48.85070037841797}}}, {"tfidf_total": 0.4082482904638631, "poi": {"xid": "W19741465", "name": "Square de Cluny", "dist": 443.51700983, "rate": 3, "osm": "way/19741465", "wikidata": "Q3162595", "kinds": "urban_environment,gardens_and_parks,cultural,interesting_places", "point": {"lon": 2.344257116317749, "lat": 48.85078048706055}}}, {"tfidf_total": 0.4082482904638631, "poi": {"xid": "W40579763", "name": "MK2 Hautefeuille", "dist": 454.57772783, "rate": 3, "osm": "way/40579763", "wikidata": "Q3273028", "kinds": "cultural,cinemas,theatres_and_entertainments,interesting_places", "point": {"lon": 2.342883348464966, "lat": 48.85219955444336}}}, {"tfidf_total": 0.4082482904638631, "poi": {"xid": "N1427978194", "name": "Saint-Andr\u00e9-des-Arts", "dist": 489.88351951, "rate": 3, "osm": "node/1427978194", "wikidata": "Q3461762", "kinds": "cultural,cinemas,theatres_and_entertainments,interesting_places", "point": {"lon": 2.3421249389648438, "lat": 48.85337448120117}}}, {"tfidf_total": 0.4082482904638631, "poi": {"xid": "W15895172", "name": "Square de la Tour Saint-Jacques", "dist": 497.44302601, "rate": 3, "osm": "way/15895172", "wikidata": "Q3494976", "kinds": "urban_environment,gardens_and_parks,cultural,interesting_places", "point": {"lon": 2.3487608432769775, "lat": 48.85788345336914}}}, {"tfidf_total": 0.4082482904638631, "poi": {"xid": "W55620116", "name": "Jardin du Bataillon de l'ONU", "dist": 499.90833281, "rate": 3, "osm": "way/55620116", "wikidata": "Q3162574", "kinds": "urban_environment,gardens_and_parks,cultural,interesting_places", "point": {"lon": 2.355463981628418, "lat": 48.85434341430664}}}, {"tfidf_total": 0.4082482904638631, "poi": {"xid": "W4433291", "name": "square Paul-Painlev\u00e9", "dist": 504.88754714, "rate": 3, "osm": "way/4433291", "wikidata": "Q3494759", "kinds": "urban_environment,gardens_and_parks,cultural,interesting_places", "point": {"lon": 2.34411883354187, "lat": 48.85008239746094}}}, {"tfidf_total": 0.4082482904638631, "poi": {"xid": "Q42296656", "name": "Cin\u00e9ma Rivoli", "dist": 511.04888135, "rate": 1, "wikidata": "Q42296656", "kinds": "cinemas,cultural,theatres_and_entertainments,interesting_places", "point": {"lon": 2.3505899906158447, "lat": 48.857852935791016}}}, {"tfidf_total": 0.4082482904638631, "poi": {"xid": "W97602191", "name": "Square Auguste Mariette-Pacha", "dist": 517.7041574, "rate": 3, "osm": "way/97602191", "wikidata": "Q3494492", "kinds": "urban_environment,gardens_and_parks,cultural,interesting_places", "point": {"lon": 2.3459417819976807, "lat": 48.84915542602539}}}, {"tfidf_total": 0.4082482904638631, "poi": {"xid": "W97602192", "name": "Square Michel Foucault", "dist": 523.30843011, "rate": 3, "osm": "way/97602192", "wikidata": "Q3494732", "kinds": "urban_environment,gardens_and_parks,cultural,interesting_places", "point": {"lon": 2.3452558517456055, "lat": 48.849327087402344}}}, {"tfidf_total": 0.4082482904638631, "poi": {"xid": "Q42296640", "name": "Victoria Ch\u00e2telet", "dist": 524.35508243, "rate": 1, "wikidata": "Q42296640", "kinds": "cinemas,cultural,theatres_and_entertainments,interesting_places", "point": {"lon": 2.3462717533111572, "lat": 48.857818603515625}}}, {"tfidf_total": 0.4082482904638631, "poi": {"xid": "Q3494953", "name": "square de la Mutualit\u00e9", "dist": 529.61716233, "rate": 3, "wikidata": "Q3494953", "kinds": "gardens_and_parks,cultural,urban_environment,interesting_places", "point": {"lon": 2.3504390716552734, "lat": 48.84877014160156}}}, {"tfidf_total": 0.4082482904638631, "poi": {"xid": "Q42296657", "name": "Royal-Rivoli", "dist": 530.03617754, "rate": 1, "wikidata": "Q42296657", "kinds": "cinemas,cultural,theatres_and_entertainments,interesting_places", "point": {"lon": 2.350900650024414, "lat": 48.85797119140625}}}, {"tfidf_total": 0.4082482904638631, "poi": {"xid": "W173659054", "name": "Saint-Andr\u00e9-des-Arts", "dist": 550.18452354, "rate": 3, "osm": "way/173659054", "wikidata": "Q3461762", "kinds": "cultural,cinemas,theatres_and_entertainments,interesting_places", "point": {"lon": 2.341306209564209, "lat": 48.85326385498047}}}, {"tfidf_total": 0.4082482904638631, "poi": {"xid": "Q42296660", "name": "Cluny \u00c9coles", "dist": 550.89305097, "rate": 1, "wikidata": "Q42296660", "kinds": "cinemas,cultural,theatres_and_entertainments,interesting_places", "point": {"lon": 2.3432631492614746, "lat": 48.85006332397461}}}, {"tfidf_total": 0.4082482904638631, "poi": {"xid": "W53567907", "name": "Place Dauphine", "dist": 560.87087606, "rate": 2, "osm": "way/53567907", "wikidata": "Q1810430", "kinds": "gardens_and_parks,cultural,urban_environment,interesting_places", "point": {"lon": 2.3426530361175537, "lat": 48.856407165527344}}}, {"tfidf_total": 0.4082482904638631, "poi": {"xid": "W55620180", "name": "Square Couperin", "dist": 562.51670613, "rate": 3, "osm": "way/55620180", "wikidata": "Q3494541", "kinds": "urban_environment,gardens_and_parks,cultural,interesting_places", "point": {"lon": 2.355701446533203, "lat": 48.85560989379883}}}, {"tfidf_total": 0.4082482904638631, "poi": {"xid": "N1427838200", "name": "\u00c9coles Cin\u00e9ma Club", "dist": 563.32584285, "rate": 3, "osm": "node/1427838200", "wikidata": "Q3222222", "kinds": "cultural,cinemas,theatres_and_entertainments,interesting_places", "point": {"lon": 2.348954200744629, "lat": 48.84834671020508}}}, {"tfidf_total": 0.4082482904638631, "poi": {"xid": "N320952619", "name": "Le Champo", "dist": 565.01977173, "rate": 7, "osm": "node/320952619", "wikidata": "Q3220985", "kinds": "cultural,cinemas,theatres_and_entertainments,interesting_places", "point": {"lon": 2.343146562576294, "lat": 48.84996032714844}}}, {"tfidf_total": 0.4082482904638631, "poi": {"xid": "Q3494954", "name": "square de la Place-Dauphine", "dist": 573.76454952, "rate": 3, "wikidata": "Q3494954", "kinds": "gardens_and_parks,cultural,urban_environment,interesting_places", "point": {"lon": 2.342557907104492, "lat": 48.85651779174805}}}, {"tfidf_total": 0.4082482904638631, "poi": {"xid": "N320952621", "name": "Reflet M\u00e9dicis", "dist": 587.09570472, "rate": 3, "osm": "node/320952621", "wikidata": "Q3423049", "kinds": "cultural,cinemas,theatres_and_entertainments,interesting_places", "point": {"lon": 2.343029737472534, "lat": 48.849754333496094}}}, {"tfidf_total": 0.4082482904638631, "poi": {"xid": "N1427978193", "name": "Nouvel Od\u00e9on", "dist": 590.86270346, "rate": 3, "osm": "node/1427978193", "wikidata": "Q3345115", "kinds": "cultural,cinemas,theatres_and_entertainments,interesting_places", "point": {"lon": 2.341780185699463, "lat": 48.850807189941406}}}, {"tfidf_total": 0.4082482904638631, "poi": {"xid": "Q20203644", "name": "Promenade des Berges de la Seine", "dist": 592.90520593, "rate": 3, "wikidata": "Q20203644", "kinds": "gardens_and_parks,cultural,urban_environment,interesting_places", "point": {"lon": 2.3441667556762695, "lat": 48.8577766418457}}}, {"tfidf_total": 0.3976254539200466, "poi": {"xid": "Q3361233", "name": "Palais \u00e9piscopal de Paris", "dist": 75.80779247, "rate": 3, "wikidata": "Q3361233", "kinds": "religion,palaces,architecture,historic_architecture,other_temples,interesting_places", "point": {"lon": 2.349720001220703, "lat": 48.85309982299805}}}, {"tfidf_total": 0.3976254539200466, "poi": {"xid": "Q16928478", "name": "Palais de l'Archev\u00each\u00e9 de Paris", "dist": 163.82769518, "rate": 3, "wikidata": "Q16928478", "kinds": "religion,palaces,architecture,historic_architecture,other_temples,interesting_places", "point": {"lon": 2.350555658340454, "lat": 48.852500915527344}}}, {"tfidf_total": 0.30757505919470274, "poi": {"xid": "N1913411918", "name": "Notre Dame Treasure", "dist": 126.68913029, "rate": 7, "osm": "node/1913411918", "wikidata": "Q2981", "kinds": "religion,cathedrals,churches,cultural,museums,interesting_places,other_museums,catholic_churches", "point": {"lon": 2.350059986114502, "lat": 48.852630615234375}}}, {"tfidf_total": 0.30757505919470274, "poi": {"xid": "Q3146039", "name": "H\u00f4tel de la Motte-Montgaubert", "dist": 191.38613333, "rate": 7, "wikidata": "Q3146039", "kinds": "historic_architecture,architecture,interesting_places,other_buildings_and_structures", "point": {"lon": 2.351300001144409, "lat": 48.85390090942383}}}, {"tfidf_total": 0.30757505919470274, "poi": {"xid": "Q22924465", "name": "h\u00f4tel de Laffemas", "dist": 194.59330389, "rate": 6, "wikidata": "Q22924465", "kinds": "historic_architecture,architecture,interesting_places,other_buildings_and_structures", "point": {"lon": 2.34677791595459, "lat": 48.85227966308594}}}, {"tfidf_total": 0.30757505919470274, "poi": {"xid": "Q22924433", "name": "6 rue du Fouarre, Paris", "dist": 212.46337319, "rate": 6, "wikidata": "Q22924433", "kinds": "historic_architecture,architecture,interesting_places,other_buildings_and_structures", "point": {"lon": 2.3474440574645996, "lat": 48.851722717285156}}}, {"tfidf_total": 0.30757505919470274, "poi": {"xid": "N1625405659", "name": "Le Colbert", "dist": 218.29063444, "rate": 7, "osm": "node/1625405659", "wikidata": "Q3145456", "kinds": "architecture,historic_architecture,accomodations,interesting_places,other_hotels,other_buildings_and_structures", "point": {"lon": 2.3483307361602783, "lat": 48.851470947265625}}}, {"tfidf_total": 0.30757505919470274, "poi": {"xid": "Q22924435", "name": "Studio Galande", "dist": 231.61842617, "rate": 6, "wikidata": "Q22924435", "kinds": "historic_architecture,architecture,interesting_places,other_buildings_and_structures", "point": {"lon": 2.3471388816833496, "lat": 48.85163879394531}}}, {"tfidf_total": 0.30757505919470274, "poi": {"xid": "Q22924418", "name": "H\u00f4tel Lesseville", "dist": 235.07256736, "rate": 6, "wikidata": "Q22924418", "kinds": "historic_architecture,architecture,interesting_places,other_buildings_and_structures", "point": {"lon": 2.3466670513153076, "lat": 48.85183334350586}}}, {"tfidf_total": 0.30757505919470274, "poi": {"xid": "Q22924395", "name": "6 rue Fr\u00e9d\u00e9ric-Sauton, Paris", "dist": 257.07935996, "rate": 6, "wikidata": "Q22924395", "kinds": "historic_architecture,architecture,interesting_places,other_buildings_and_structures", "point": {"lon": 2.3491671085357666, "lat": 48.851112365722656}}}, {"tfidf_total": 0.30757505919470274, "poi": {"xid": "Q22924436", "name": "1-3 rue des Grands-Degr\u00e9s - 2 rue Ma\u00eetre-Albert, Paris", "dist": 258.76719594, "rate": 6, "wikidata": "Q22924436", "kinds": "historic_architecture,architecture,interesting_places,other_buildings_and_structures", "point": {"lon": 2.3499999046325684, "lat": 48.85122299194336}}}, {"tfidf_total": 0.30757505919470274, "poi": {"xid": "Q22924434", "name": "Maison des trois porcelets", "dist": 259.19444069, "rate": 6, "wikidata": "Q22924434", "kinds": "historic_architecture,architecture,interesting_places,other_buildings_and_structures", "point": {"lon": 2.347583055496216, "lat": 48.85122299194336}}}, {"tfidf_total": 0.30757505919470274, "poi": {"xid": "Q3538874", "name": "Tribunal de commerce de Paris", "dist": 293.56431406, "rate": 7, "wikidata": "Q3538874", "kinds": "historic_architecture,architecture,interesting_places,other_buildings_and_structures", "point": {"lon": 2.3468101024627686, "lat": 48.8557014465332}}}, {"tfidf_total": 0.30757505919470274, "poi": {"xid": "Q22921456", "name": "53 quai de Bourbon, Paris", "dist": 335.39709394, "rate": 6, "wikidata": "Q22921456", "kinds": "historic_architecture,architecture,interesting_places,other_buildings_and_structures", "point": {"lon": 2.353358030319214, "lat": 48.853187561035156}}}, {"tfidf_total": 0.30757505919470274, "poi": {"xid": "Q3145921", "name": "H\u00f4tel de Nesmond", "dist": 346.54760761, "rate": 7, "wikidata": "Q3145921", "kinds": "historic_architecture,architecture,interesting_places,other_buildings_and_structures", "point": {"lon": 2.3513801097869873, "lat": 48.850799560546875}}}, {"tfidf_total": 0.30757505919470274, "poi": {"xid": "Q22924437", "name": "35 rue de la Harpe - 24 rue de la Parcheminerie, Paris", "dist": 355.60608086, "rate": 6, "wikidata": "Q22924437", "kinds": "historic_architecture,architecture,interesting_places,other_buildings_and_structures", "point": {"lon": 2.3444719314575195, "lat": 48.85197067260742}}}, {"tfidf_total": 0.30757505919470274, "poi": {"xid": "Q22924438", "name": "37 rue de la Harpe, Paris", "dist": 364.74611944, "rate": 6, "wikidata": "Q22924438", "kinds": "historic_architecture,architecture,interesting_places,other_buildings_and_structures", "point": {"lon": 2.3443329334259033, "lat": 48.85197067260742}}}, {"tfidf_total": 0.30757505919470274, "poi": {"xid": "Q22924451", "name": "29 rue de la Parcheminerie, Paris", "dist": 367.60188113, "rate": 6, "wikidata": "Q22924451", "kinds": "historic_architecture,architecture,interesting_places,other_buildings_and_structures", "point": {"lon": 2.3444440364837646, "lat": 48.851776123046875}}}, {"tfidf_total": 0.30757505919470274, "poi": {"xid": "R536982", "name": "Palace of Justice", "dist": 371.67293271, "rate": 7, "osm": "relation/536982", "wikidata": "Q143080", "kinds": "architecture,historic_architecture,interesting_places,other_buildings_and_structures", "point": {"lon": 2.3450512886047363, "lat": 48.855655670166016}}}, {"tfidf_total": 0.30757505919470274, "poi": {"xid": "Q22924454", "name": "53 boulevard Saint-Germain, Paris", "dist": 372.32961063, "rate": 6, "wikidata": "Q22924454", "kinds": "historic_architecture,architecture,interesting_places,other_buildings_and_structures", "point": {"lon": 2.347249984741211, "lat": 48.850223541259766}}}, {"tfidf_total": 0.30757505919470274, "poi": {"xid": "Q22924426", "name": "immeuble, 8 rue Boutebrie", "dist": 375.24456016, "rate": 5, "wikidata": "Q22924426", "kinds": "historic_architecture,architecture,interesting_places,other_buildings_and_structures", "point": {"lon": 2.3445560932159424, "lat": 48.85152816772461}}}, {"tfidf_total": 0.30757505919470274, "poi": {"xid": "Q3145903", "name": "H\u00f4tel de Miramion", "dist": 388.26940065, "rate": 7, "wikidata": "Q3145903", "kinds": "historic_architecture,architecture,interesting_places,other_buildings_and_structures", "point": {"lon": 2.3519399166107178, "lat": 48.85060119628906}}}, {"tfidf_total": 0.30757505919470274, "poi": {"xid": "Q22924439", "name": "45 rue de la Harpe, Paris", "dist": 390.50334347, "rate": 6, "wikidata": "Q22924439", "kinds": "historic_architecture,architecture,interesting_places,other_buildings_and_structures", "point": {"lon": 2.3441109657287598, "lat": 48.851749420166016}}}, {"tfidf_total": 0.30757505919470274, "poi": {"xid": "Q22921502", "name": "30-32 quai d'Orl\u00e9ans, Paris", "dist": 407.87208382, "rate": 6, "wikidata": "Q22921502", "kinds": "historic_architecture,architecture,interesting_places,other_buildings_and_structures", "point": {"lon": 2.353950023651123, "lat": 48.85203170776367}}}, {"tfidf_total": 0.30757505919470274, "poi": {"xid": "Q22921426", "name": "H\u00f4tel Roualle de Boisgelin", "dist": 414.88903917, "rate": 6, "wikidata": "Q22921426", "kinds": "historic_architecture,architecture,interesting_places,other_buildings_and_structures", "point": {"lon": 2.3544440269470215, "lat": 48.85319519042969}}}, {"tfidf_total": 0.30757505919470274, "poi": {"xid": "Q22924550", "name": "20 rue de l'Hirondelle, Paris", "dist": 415.90266868, "rate": 6, "wikidata": "Q22924550", "kinds": "historic_architecture,architecture,interesting_places,other_buildings_and_structures", "point": {"lon": 2.343139886856079, "lat": 48.853599548339844}}}, {"tfidf_total": 0.30757505919470274, "poi": {"xid": "Q22980206", "name": "H\u00f4tel de Luynes", "dist": 432.9949143, "rate": 6, "wikidata": "Q22980206", "kinds": "historic_architecture,architecture,interesting_places,other_buildings_and_structures", "point": {"lon": 2.342979907989502, "lat": 48.85404968261719}}}, {"tfidf_total": 0.30757505919470274, "poi": {"xid": "R284089", "name": "Paris Town Hall", "dist": 432.82279702, "rate": 7, "osm": "relation/284089", "wikidata": "Q640968", "kinds": "architecture,historic_architecture,interesting_places,other_buildings_and_structures", "point": {"lon": 2.352527618408203, "lat": 48.85642623901367}}}, {"tfidf_total": 0.30757505919470274, "poi": {"xid": "Q17450718", "name": "H\u00f4tel de F\u00e9camp", "dist": 439.93225244, "rate": 7, "wikidata": "Q17450718", "kinds": "historic_architecture,architecture,interesting_places,other_buildings_and_structures", "point": {"lon": 2.3429999351501465, "lat": 48.85240936279297}}}, {"tfidf_total": 0.30757505919470274, "poi": {"xid": "Q21079456", "name": "Immeuble Hennebique", "dist": 445.01931112, "rate": 6, "wikidata": "Q21079456", "kinds": "historic_architecture,architecture,interesting_places,other_buildings_and_structures", "point": {"lon": 2.3427999019622803, "lat": 48.85282897949219}}}, {"tfidf_total": 0.30757505919470274, "poi": {"xid": "Q22921403", "name": "61 rue Saint-Louis-en-l'\u00cele, Paris", "dist": 446.2242756, "rate": 6, "wikidata": "Q22921403", "kinds": "historic_architecture,architecture,interesting_places,other_buildings_and_structures", "point": {"lon": 2.354722023010254, "lat": 48.852500915527344}}}, {"tfidf_total": 0.30757505919470274, "poi": {"xid": "Q22921481", "name": "4 rue Le Regrattier, Paris", "dist": 451.5938432, "rate": 6, "wikidata": "Q22921481", "kinds": "historic_architecture,architecture,interesting_places,other_buildings_and_structures", "point": {"lon": 2.354496955871582, "lat": 48.85187530517578}}}, {"tfidf_total": 0.30757505919470274, "poi": {"xid": "Q1110005", "name": "Coll\u00e8ge de Beauvais", "dist": 451.12306396, "rate": 7, "wikidata": "Q1110005", "kinds": "historic_architecture,architecture,interesting_places,other_buildings_and_structures", "point": {"lon": 2.3470311164855957, "lat": 48.849525451660156}}}, {"tfidf_total": 0.30757505919470274, "poi": {"xid": "Q22924455", "name": "67 rue Saint-Jacques, Paris", "dist": 452.62706698, "rate": 7, "wikidata": "Q22924455", "kinds": "historic_architecture,architecture,interesting_places,other_buildings_and_structures", "point": {"lon": 2.345305919647217, "lat": 48.85005569458008}}}, {"tfidf_total": 0.30757505919470274, "poi": {"xid": "W55366403", "name": "\u00c9glise des Saints-Archanges", "dist": 452.36009042, "rate": 7, "osm": "way/55366403", "wikidata": "Q3585930", "kinds": "religion,cathedrals,churches,interesting_places,other_churches", "point": {"lon": 2.347207546234131, "lat": 48.84947967529297}}}, {"tfidf_total": 0.30757505919470274, "poi": {"xid": "Q22921483", "name": "14 rue Le Regrattier, Paris", "dist": 455.09274317, "rate": 6, "wikidata": "Q22921483", "kinds": "historic_architecture,architecture,interesting_places,other_buildings_and_structures", "point": {"lon": 2.3547000885009766, "lat": 48.852149963378906}}}, {"tfidf_total": 0.30757505919470274, "poi": {"xid": "Q22980203", "name": "10 rue G\u00eet-le-C\u0153ur, Paris", "dist": 456.29773316, "rate": 6, "wikidata": "Q22980203", "kinds": "historic_architecture,architecture,interesting_places,other_buildings_and_structures", "point": {"lon": 2.342600107192993, "lat": 48.853721618652344}}}, {"tfidf_total": 0.30757505919470274, "poi": {"xid": "Q3145813", "name": "H\u00f4tel de Cluny", "dist": 466.58403056, "rate": 7, "wikidata": "Q3145813", "kinds": "historic_architecture,architecture,interesting_places,other_buildings_and_structures", "point": {"lon": 2.344219923019409, "lat": 48.85049819946289}}}, {"tfidf_total": 0.30757505919470274, "poi": {"xid": "Q22924581", "name": "27 rue Saint-Andr\u00e9-des-Arts, Paris", "dist": 479.50341106, "rate": 6, "wikidata": "Q22924581", "kinds": "historic_architecture,architecture,interesting_places,other_buildings_and_structures", "point": {"lon": 2.3422698974609375, "lat": 48.8532600402832}}}, {"tfidf_total": 0.30757505919470274, "poi": {"xid": "Q22921453", "name": "19bis quai de Bourbon - 28 rue Le Regrattier, Paris", "dist": 486.16235774, "rate": 6, "wikidata": "Q22921453", "kinds": "historic_architecture,architecture,interesting_places,other_buildings_and_structures", "point": {"lon": 2.3553779125213623, "lat": 48.8528938293457}}}, {"tfidf_total": 0.30757505919470274, "poi": {"xid": "Q15950433", "name": "H\u00f4tel Feydeau de Montholon", "dist": 492.1662654, "rate": 7, "wikidata": "Q15950433", "kinds": "historic_architecture,architecture,interesting_places,other_buildings_and_structures", "point": {"lon": 2.3422999382019043, "lat": 48.85449981689453}}}, {"tfidf_total": 0.30757505919470274, "poi": {"xid": "Q22921406", "name": "Cr\u00e8merie, 6 rue du Pont-Louis-Philippe", "dist": 497.2762047, "rate": 6, "wikidata": "Q22921406", "kinds": "historic_architecture,architecture,interesting_places,other_buildings_and_structures", "point": {"lon": 2.3552780151367188, "lat": 48.85472106933594}}}, {"tfidf_total": 0.30757505919470274, "poi": {"xid": "Q3145863", "name": "H\u00f4tel de Jassaud", "dist": 500.16466225, "rate": 7, "wikidata": "Q3145863", "kinds": "historic_architecture,architecture,interesting_places,other_buildings_and_structures", "point": {"lon": 2.355530023574829, "lat": 48.852699279785156}}}, {"tfidf_total": 0.30757505919470274, "poi": {"xid": "Q22924586", "name": "10 rue S\u00e9guier, Paris", "dist": 505.78356043, "rate": 6, "wikidata": "Q22924586", "kinds": "historic_architecture,architecture,interesting_places,other_buildings_and_structures", "point": {"lon": 2.3419899940490723, "lat": 48.85411071777344}}}, {"tfidf_total": 0.30757505919470274, "poi": {"xid": "Q3145799", "name": "H\u00f4tel de Chenizot", "dist": 508.60178385, "rate": 7, "wikidata": "Q3145799", "kinds": "historic_architecture,architecture,interesting_places,other_buildings_and_structures", "point": {"lon": 2.3554399013519287, "lat": 48.85210037231445}}}, {"tfidf_total": 0.30757505919470274, "poi": {"xid": "Q56308544", "name": "H\u00f4tel de Clermont-Tonnerre", "dist": 512.31691137, "rate": 7, "wikidata": "Q56308544", "kinds": "historic_architecture,architecture,interesting_places,other_buildings_and_structures", "point": {"lon": 2.353818893432617, "lat": 48.8502082824707}}}, {"tfidf_total": 0.30757505919470274, "poi": {"xid": "Q22921477", "name": "56 rue de l'H\u00f4tel-de-Ville, Paris", "dist": 516.05797647, "rate": 6, "wikidata": "Q22921477", "kinds": "historic_architecture,architecture,interesting_places,other_buildings_and_structures", "point": {"lon": 2.3556220531463623, "lat": 48.85453414916992}}}, {"tfidf_total": 0.30757505919470274, "poi": {"xid": "Q3145709", "name": "H\u00f4tel d'Arvers", "dist": 519.49571447, "rate": 7, "wikidata": "Q3145709", "kinds": "historic_architecture,architecture,interesting_places,other_buildings_and_structures", "point": {"lon": 2.3551900386810303, "lat": 48.85139846801758}}}, {"tfidf_total": 0.30757505919470274, "poi": {"xid": "Q22980216", "name": "H\u00f4tel S\u00e9guier (Paris)", "dist": 531.35741649, "rate": 6, "wikidata": "Q22980216", "kinds": "historic_architecture,architecture,interesting_places,other_buildings_and_structures", "point": {"lon": 2.3415799140930176, "lat": 48.8537712097168}}}, {"tfidf_total": 0.30757505919470274, "poi": {"xid": "Q22921425", "name": "H\u00f4tel du 17 quai de Bourbon", "dist": 531.72528541, "rate": 6, "wikidata": "Q22921425", "kinds": "historic_architecture,architecture,interesting_places,other_buildings_and_structures", "point": {"lon": 2.3559670448303223, "lat": 48.85270690917969}}}, {"tfidf_total": 0.30757505919470274, "poi": {"xid": "Q3145701", "name": "H\u00f4tel d'Aguesseau", "dist": 533.98064674, "rate": 7, "wikidata": "Q3145701", "kinds": "historic_architecture,architecture,interesting_places,other_buildings_and_structures", "point": {"lon": 2.3415300846099854, "lat": 48.85361099243164}}}, {"tfidf_total": 0.30757505919470274, "poi": {"xid": "Q22980170", "name": "2-14 rue Fran\u00e7ois-Miron, Paris", "dist": 534.92469572, "rate": 6, "wikidata": "Q22980170", "kinds": "historic_architecture,architecture,interesting_places,other_buildings_and_structures", "point": {"lon": 2.355149984359741, "lat": 48.855770111083984}}}, {"tfidf_total": 0.30757505919470274, "poi": {"xid": "Q3279717", "name": "Maison de la Mutualit\u00e9", "dist": 533.99972339, "rate": 7, "wikidata": "Q3279717", "kinds": "historic_architecture,architecture,interesting_places,other_buildings_and_structures", "point": {"lon": 2.350555658340454, "lat": 48.848751068115234}}}, {"tfidf_total": 0.30757505919470274, "poi": {"xid": "Q3145550", "name": "H\u00f4tel Le Charron", "dist": 549.75881586, "rate": 7, "wikidata": "Q3145550", "kinds": "historic_architecture,architecture,interesting_places,other_buildings_and_structures", "point": {"lon": 2.3561899662017822, "lat": 48.85260009765625}}}, {"tfidf_total": 0.30757505919470274, "poi": {"xid": "Q3142856", "name": "La Force Prison", "dist": 552.63831948, "rate": 7, "wikidata": "Q3142856", "kinds": "historic_architecture,architecture,interesting_places,other_buildings_and_structures", "point": {"lon": 2.355560064315796, "lat": 48.85559844970703}}}, {"tfidf_total": 0.30757505919470274, "poi": {"xid": "Q22921501", "name": "immeuble, 6 quai d'Orl\u00e9ans", "dist": 553.35260293, "rate": 6, "wikidata": "Q22921501", "kinds": "historic_architecture,architecture,interesting_places,other_buildings_and_structures", "point": {"lon": 2.3556559085845947, "lat": 48.85133743286133}}}, {"tfidf_total": 0.30757505919470274, "poi": {"xid": "Q22921028", "name": "19 quai de l'Horloge - 2 rue de Harlay, Paris", "dist": 555.73091452, "rate": 6, "wikidata": "Q22921028", "kinds": "historic_architecture,architecture,interesting_places,other_buildings_and_structures", "point": {"lon": 2.3431670665740967, "lat": 48.85675048828125}}}, {"tfidf_total": 0.30757505919470274, "poi": {"xid": "H270729", "name": "hotel du jeu de paume", "dist": 559.70577109, "rate": 6, "wikidata": "Q22921944", "kinds": "architecture,historic_architecture,accomodations,interesting_places,other_hotels,other_buildings_and_structures", "point": {"lon": 2.356139659881592, "lat": 48.85204315185547}}}, {"tfidf_total": 0.30757505919470274, "poi": {"xid": "Q22921555", "name": "9 rue du Renard, Paris", "dist": 559.69176475, "rate": 6, "wikidata": "Q22921555", "kinds": "historic_architecture,architecture,interesting_places,other_buildings_and_structures", "point": {"lon": 2.351567029953003, "lat": 48.85810089111328}}}, {"tfidf_total": 0.30757505919470274, "poi": {"xid": "W26584053", "name": "Coll\u00e8ge des Bernardins", "dist": 559.92156922, "rate": 7, "osm": "way/26584053", "wikidata": "Q960165", "kinds": "architecture,historic_architecture,interesting_places,other_buildings_and_structures", "point": {"lon": 2.351982831954956, "lat": 48.84883499145508}}}, {"tfidf_total": 0.30757505919470274, "poi": {"xid": "Q22980184", "name": "Immeuble Le Couteur", "dist": 560.36269076, "rate": 6, "wikidata": "Q22980184", "kinds": "historic_architecture,architecture,interesting_places,other_buildings_and_structures", "point": {"lon": 2.3464720249176025, "lat": 48.848609924316406}}}, {"tfidf_total": 0.30757505919470274, "poi": {"xid": "Q22924545", "name": "immeuble, 2 rue de l'\u00c9cole-de-M\u00e9decine", "dist": 562.82182289, "rate": 6, "wikidata": "Q22924545", "kinds": "historic_architecture,architecture,interesting_places,other_buildings_and_structures", "point": {"lon": 2.342679977416992, "lat": 48.85036087036133}}}, {"tfidf_total": 0.30757505919470274, "poi": {"xid": "Q22921029", "name": "21 quai de l'Horloge, Paris", "dist": 562.95298347, "rate": 6, "wikidata": "Q22921029", "kinds": "historic_architecture,architecture,interesting_places,other_buildings_and_structures", "point": {"lon": 2.343111038208008, "lat": 48.856807708740234}}}, {"tfidf_total": 0.30757505919470274, "poi": {"xid": "W173659053", "name": "Lyc\u00e9e F\u00e9nelon, Paris", "dist": 568.47464645, "rate": 7, "osm": "way/173659053", "wikidata": "Q3268681", "kinds": "architecture,historic_architecture,interesting_places,other_buildings_and_structures", "point": {"lon": 2.341111421585083, "lat": 48.852787017822266}}}, {"tfidf_total": 0.30757505919470274, "poi": {"xid": "Q19348159", "name": "2-6, place Dauphine", "dist": 568.57731204, "rate": 6, "wikidata": "Q19348159", "kinds": "historic_architecture,architecture,interesting_places,other_buildings_and_structures", "point": {"lon": 2.3429999351501465, "lat": 48.8568000793457}}}, {"tfidf_total": 0.30757505919470274, "poi": {"xid": "Q22921030", "name": "23 quai de l'Horloge, Paris", "dist": 569.01992256, "rate": 6, "wikidata": "Q22921030", "kinds": "historic_architecture,architecture,interesting_places,other_buildings_and_structures", "point": {"lon": 2.3429999351501465, "lat": 48.856807708740234}}}, {"tfidf_total": 0.30757505919470274, "poi": {"xid": "Q19348166", "name": "13, place Dauphine", "dist": 571.46517766, "rate": 6, "wikidata": "Q19348166", "kinds": "historic_architecture,architecture,interesting_places,other_buildings_and_structures", "point": {"lon": 2.3422999382019043, "lat": 48.856239318847656}}}, {"tfidf_total": 0.30757505919470274, "poi": {"xid": "Q22921558", "name": "immeuble, 8 rue Saint-Bon", "dist": 573.83007385, "rate": 5, "wikidata": "Q22921558", "kinds": "historic_architecture,architecture,interesting_places,other_buildings_and_structures", "point": {"lon": 2.350677967071533, "lat": 48.85841751098633}}}, {"tfidf_total": 0.30757505919470274, "poi": {"xid": "W38041207", "name": "Coll\u00e8ge de France", "dist": 574.94536032, "rate": 7, "osm": "way/38041207", "wikidata": "Q202660", "kinds": "architecture,historic_architecture,interesting_places,other_buildings_and_structures", "point": {"lon": 2.3453783988952637, "lat": 48.848758697509766}}}, {"tfidf_total": 0.30757505919470274, "poi": {"xid": "Q22921091", "name": "2 rue Saint-Germain-l'Auxerrois - 1 rue des Lavandi\u00e8res-Sainte-Opportune, Paris", "dist": 577.63306218, "rate": 6, "wikidata": "Q22921091", "kinds": "historic_architecture,architecture,interesting_places,other_buildings_and_structures", "point": {"lon": 2.3456389904022217, "lat": 48.8581657409668}}}, {"tfidf_total": 0.30757505919470274, "poi": {"xid": "Q3145731", "name": "H\u00f4tel d'Hercule", "dist": 580.1482385, "rate": 7, "wikidata": "Q3145731", "kinds": "historic_architecture,architecture,interesting_places,other_buildings_and_structures", "point": {"lon": 2.341140031814575, "lat": 48.854698181152344}}}, {"tfidf_total": 0.30757505919470274, "poi": {"xid": "Q22921563", "name": "35 rue Saint-Louis-en-l'\u00cele - 21 rue des Deux-Ponts, Paris", "dist": 581.07951884, "rate": 6, "wikidata": "Q22921563", "kinds": "historic_architecture,architecture,interesting_places,other_buildings_and_structures", "point": {"lon": 2.356342077255249, "lat": 48.8518180847168}}}, {"tfidf_total": 0.30757505919470274, "poi": {"xid": "Q19348163", "name": "12, place Dauphine", "dist": 581.09467874, "rate": 6, "wikidata": "Q19348163", "kinds": "historic_architecture,architecture,interesting_places,other_buildings_and_structures", "point": {"lon": 2.3427999019622803, "lat": 48.85681915283203}}}, {"tfidf_total": 0.30757505919470274, "poi": {"xid": "Q22921092", "name": "5-7 rue Saint-Germain-l'Auxerrois, Paris", "dist": 581.31058215, "rate": 6, "wikidata": "Q22921092", "kinds": "historic_architecture,architecture,interesting_places,other_buildings_and_structures", "point": {"lon": 2.345249891281128, "lat": 48.85808181762695}}}, {"tfidf_total": 0.30757505919470274, "poi": {"xid": "Q22976018", "name": "63 rue de la Verrerie, Paris", "dist": 585.12486208, "rate": 6, "wikidata": "Q22976018", "kinds": "historic_architecture,architecture,interesting_places,other_buildings_and_structures", "point": {"lon": 2.352510929107666, "lat": 48.85806655883789}}}, {"tfidf_total": 0.30757505919470274, "poi": {"xid": "Q19348168", "name": "14, place Dauphine", "dist": 588.27879243, "rate": 6, "wikidata": "Q19348168", "kinds": "historic_architecture,architecture,interesting_places,other_buildings_and_structures", "point": {"lon": 2.342710018157959, "lat": 48.856849670410156}}}, {"tfidf_total": 0.30757505919470274, "poi": {"xid": "Q15950842", "name": "H\u00f4tel du 22 rue Geoffroy-l'Asnier", "dist": 589.92369324, "rate": 7, "wikidata": "Q15950842", "kinds": "historic_architecture,architecture,interesting_places,other_buildings_and_structures", "point": {"lon": 2.356555461883545, "lat": 48.85480499267578}}}, {"tfidf_total": 0.30757505919470274, "poi": {"xid": "Q22921033", "name": "3-9 rue des Lavandi\u00e8res-Sainte-Opportune, Paris", "dist": 590.25188494, "rate": 6, "wikidata": "Q22921033", "kinds": "historic_architecture,architecture,interesting_places,other_buildings_and_structures", "point": {"lon": 2.345694065093994, "lat": 48.858306884765625}}}, {"tfidf_total": 0.30757505919470274, "poi": {"xid": "Q22921834", "name": "79 rue de la Verrerie, Paris", "dist": 590.63413052, "rate": 6, "wikidata": "Q22921834", "kinds": "historic_architecture,architecture,interesting_places,other_buildings_and_structures", "point": {"lon": 2.351449966430664, "lat": 48.85842514038086}}}, {"tfidf_total": 0.30757505919470274, "poi": {"xid": "Q19348179", "name": "17, place Dauphine", "dist": 593.90337369, "rate": 6, "wikidata": "Q19348179", "kinds": "historic_architecture,architecture,interesting_places,other_buildings_and_structures", "point": {"lon": 2.342082977294922, "lat": 48.856388092041016}}}, {"tfidf_total": 0.30757505919470274, "poi": {"xid": "Q22921093", "name": "9 rue Saint-Germain-l'Auxerrois, Paris", "dist": 593.3408049, "rate": 6, "wikidata": "Q22921093", "kinds": "historic_architecture,architecture,interesting_places,other_buildings_and_structures", "point": {"lon": 2.3450560569763184, "lat": 48.85813903808594}}}, {"tfidf_total": 0.23391876040412046, "poi": {"xid": "N910390736", "name": "Conciergerie", "dist": 348.09156245, "rate": 7, "osm": "node/910390736", "wikidata": "Q138101", "kinds": "fortifications,historic,cultural,museums,interesting_places,castles,other_museums", "point": {"lon": 2.3460261821746826, "lat": 48.85594940185547}}}, {"tfidf_total": 0.23391876040412046, "poi": {"xid": "Q2059782", "name": "Petit Ch\u00e2telet", "dist": 469.34179438, "rate": 3, "wikidata": "Q2059782", "kinds": "fortifications,historic,interesting_places,castles", "point": {"lon": 2.347222328186035, "lat": 48.85749816894531}}}, {"tfidf_total": 0.23391876040412046, "poi": {"xid": "N4631762586", "name": "Paris", "dist": 499.85664098, "rate": 3, "osm": "node/4631762586", "wikidata": "Q90", "kinds": "religion,other_temples,interesting_places", "point": {"lon": 2.3528122901916504, "lat": 48.85704040527344}}}, {"tfidf_total": 0.1637066935159261, "poi": {"xid": "W201754180", "name": "Tour Nord", "dist": 36.88058137, "rate": 1, "osm": "way/201754180", "kinds": "architecture,towers,interesting_places,other_towers", "point": {"lon": 2.349287748336792, "lat": 48.853328704833984}}}, {"tfidf_total": 0.1637066935159261, "poi": {"xid": "W201611269", "name": "Tour Sud", "dist": 40.72177034, "rate": 1, "osm": "way/201611269", "kinds": "architecture,towers,interesting_places,other_towers", "point": {"lon": 2.349130392074585, "lat": 48.85311508178711}}}, {"tfidf_total": 0.1637066935159261, "poi": {"xid": "Q1478281", "name": "\u00c9glise Saint-Jean-le-Rond de Paris", "dist": 47.84336799, "rate": 3, "wikidata": "Q1478281", "kinds": "religion,churches,interesting_places,other_churches", "point": {"lon": 2.349442958831787, "lat": 48.85348129272461}}}, {"tfidf_total": 0.1637066935159261, "poi": {"xid": "Q3583556", "name": "\u00c9glise Saint-Pierre-aux-B\u0153ufs de Paris", "dist": 53.66702538, "rate": 3, "wikidata": "Q3583556", "kinds": "religion,churches,interesting_places,other_churches", "point": {"lon": 2.348889112472534, "lat": 48.85388946533203}}}, {"tfidf_total": 0.1637066935159261, "poi": {"xid": "Q63302023", "name": "Sainte-Genevi\u00e8ve-des-Ardents", "dist": 71.17862085, "rate": 3, "wikidata": "Q63302023", "kinds": "religion,churches,interesting_places,other_churches", "point": {"lon": 2.3479599952697754, "lat": 48.853729248046875}}}, {"tfidf_total": 0.1637066935159261, "poi": {"xid": "Q2956796", "name": "Chapelle Saint-Christophe de Paris", "dist": 75.80779247, "rate": 3, "wikidata": "Q2956796", "kinds": "religion,churches,interesting_places,other_churches", "point": {"lon": 2.349720001220703, "lat": 48.85309982299805}}}, {"tfidf_total": 0.1637066935159261, "poi": {"xid": "W78329744", "name": "Pont au Double", "dist": 94.26752225, "rate": 3, "osm": "way/78329744", "wikidata": "Q1469250", "kinds": "bridges,architecture,interesting_places,other_bridges", "point": {"lon": 2.3484394550323486, "lat": 48.852596282958984}}}, {"tfidf_total": 0.1637066935159261, "poi": {"xid": "Q22180749", "name": "\u00c9glise Sainte-Marine", "dist": 95.18904824, "rate": 3, "wikidata": "Q22180749", "kinds": "religion,churches,interesting_places,other_churches", "point": {"lon": 2.3495399951934814, "lat": 48.8541145324707}}}, {"tfidf_total": 0.1637066935159261, "poi": {"xid": "Q16670669", "name": "Pont Saint-Charles", "dist": 97.4598156, "rate": 3, "wikidata": "Q16670669", "kinds": "architecture,bridges,interesting_places,stone_bridges", "point": {"lon": 2.34771990776062, "lat": 48.852901458740234}}}, {"tfidf_total": 0.1637066935159261, "poi": {"xid": "Q64829179", "name": "\u00e9glise Saint-Christophe (ancienne)", "dist": 115.76571639, "rate": 3, "wikidata": "Q64829179", "kinds": "religion,churches,interesting_places,other_churches", "point": {"lon": 2.347480058670044, "lat": 48.853981018066406}}}, {"tfidf_total": 0.1637066935159261, "poi": {"xid": "W78328159", "name": "Petit-Pont - Cardinal Lustiger", "dist": 135.60291157, "rate": 3, "osm": "way/78328159", "wikidata": "Q1323635", "kinds": "bridges,architecture,interesting_places,stone_bridges", "point": {"lon": 2.3469607830047607, "lat": 48.853294372558594}}}, {"tfidf_total": 0.1637066935159261, "poi": {"xid": "Q22302761", "name": "Saint-Denis de La Chartre", "dist": 136.47395524, "rate": 3, "wikidata": "Q22302761", "kinds": "religion,churches,interesting_places,other_churches", "point": {"lon": 2.3469440937042236, "lat": 48.85333251953125}}}, {"tfidf_total": 0.1637066935159261, "poi": {"xid": "Q22230967", "name": "\u00e9glise de la Madeleine-en-la-Cit\u00e9", "dist": 156.64663814, "rate": 3, "wikidata": "Q22230967", "kinds": "religion,churches,interesting_places,other_churches", "point": {"lon": 2.347705841064453, "lat": 48.854618072509766}}}, {"tfidf_total": 0.1637066935159261, "poi": {"xid": "Q22302748", "name": "ancienne chapelle Saint-Aignan", "dist": 158.90636432, "rate": 7, "wikidata": "Q22302748", "kinds": "religion,churches,interesting_places,other_churches", "point": {"lon": 2.3504080772399902, "lat": 48.854366302490234}}}, {"tfidf_total": 0.1637066935159261, "poi": {"xid": "Q64829221", "name": "\u00e9glise Saint-Symphorien (Paris)", "dist": 188.2617735, "rate": 3, "wikidata": "Q64829221", "kinds": "religion,churches,interesting_places,other_churches", "point": {"lon": 2.3486499786376953, "lat": 48.855098724365234}}}, {"tfidf_total": 0.1637066935159261, "poi": {"xid": "Q22295486", "name": "\u00e9glise Saint-Landry de Paris", "dist": 189.32766382, "rate": 3, "wikidata": "Q22295486", "kinds": "religion,churches,interesting_places,other_churches", "point": {"lon": 2.349722146987915, "lat": 48.85499954223633}}}, {"tfidf_total": 0.1637066935159261, "poi": {"xid": "W19741083", "name": "Saint-Julien-le-Pauvre", "dist": 194.62303876, "rate": 7, "osm": "way/19741083", "wikidata": "Q1243760", "kinds": "religion,churches,interesting_places,catholic_churches", "point": {"lon": 2.3471336364746094, "lat": 48.852046966552734}}}, {"tfidf_total": 0.1637066935159261, "poi": {"xid": "Q22924411", "name": "\u00c9glise Saint-Blaise de Paris", "dist": 195.02934041, "rate": 6, "wikidata": "Q22924411", "kinds": "religion,churches,interesting_places,other_churches", "point": {"lon": 2.3471109867095947, "lat": 48.852054595947266}}}, {"tfidf_total": 0.1637066935159261, "poi": {"xid": "Q166670", "name": "\u00c9glise Saint-Denis-du-Pas", "dist": 197.50203512, "rate": 3, "wikidata": "Q166670", "kinds": "religion,churches,interesting_places,other_churches", "point": {"lon": 2.3511111736297607, "lat": 48.852500915527344}}}, {"tfidf_total": 0.1637066935159261, "poi": {"xid": "Q18729183", "name": "\u00e9glise Sainte-Croix de la Cit\u00e9", "dist": 206.2465203, "rate": 3, "wikidata": "Q18729183", "kinds": "religion,churches,interesting_places,other_churches", "point": {"lon": 2.3475470542907715, "lat": 48.85506820678711}}}, {"tfidf_total": 0.1637066935159261, "poi": {"xid": "Q64670265", "name": "\u00c9glise Saint-Germain-le-Vieux", "dist": 220.02179324, "rate": 3, "wikidata": "Q64670265", "kinds": "religion,churches,interesting_places,other_churches", "point": {"lon": 2.346129894256592, "lat": 48.85430908203125}}}, {"tfidf_total": 0.1637066935159261, "poi": {"xid": "W474063681", "name": "Pont d'Arcole", "dist": 223.07927135, "rate": 3, "osm": "way/474063681", "wikidata": "Q1418458", "kinds": "bridges,architecture,interesting_places,other_bridges", "point": {"lon": 2.350318431854248, "lat": 48.85514831542969}}}, {"tfidf_total": 0.1637066935159261, "poi": {"xid": "Q17190247", "name": "\u00c9glise Saint-\u00c9loi Barnabites (Paris)", "dist": 240.22058802, "rate": 3, "wikidata": "Q17190247", "kinds": "religion,churches,interesting_places,other_churches", "point": {"lon": 2.3464832305908203, "lat": 48.85493469238281}}}, {"tfidf_total": 0.1637066935159261, "poi": {"xid": "Q55227441", "name": "\u00c9glise Saint-Pierre des Arcis", "dist": 266.85831603, "rate": 3, "wikidata": "Q55227441", "kinds": "religion,churches,interesting_places,other_churches", "point": {"lon": 2.3464300632476807, "lat": 48.855228424072266}}}, {"tfidf_total": 0.1637066935159261, "poi": {"xid": "W19740659", "name": "Saint-S\u00e9verin", "dist": 269.71847573, "rate": 7, "osm": "way/19740659", "wikidata": "Q1710376", "kinds": "religion,churches,interesting_places,catholic_churches", "point": {"lon": 2.345712184906006, "lat": 48.85209274291992}}}, {"tfidf_total": 0.1637066935159261, "poi": {"xid": "W78327546", "name": "Pont d'Arcole", "dist": 281.77163722, "rate": 3, "osm": "way/78327546", "wikidata": "Q1418458", "kinds": "bridges,architecture,interesting_places,stone_bridges", "point": {"lon": 2.3506693840026855, "lat": 48.855621337890625}}}, {"tfidf_total": 0.1637066935159261, "poi": {"xid": "W78329745", "name": "Pont de l'Archev\u00each\u00e9", "dist": 292.08257388, "rate": 3, "osm": "way/78329745", "wikidata": "Q2073308", "kinds": "bridges,architecture,interesting_places,stone_bridges", "point": {"lon": 2.351555109024048, "lat": 48.85151290893555}}}, {"tfidf_total": 0.1637066935159261, "poi": {"xid": "W78329825", "name": "Pont Saint-Louis", "dist": 299.58398395, "rate": 3, "osm": "way/78329825", "wikidata": "Q1140060", "kinds": "bridges,architecture,interesting_places,other_bridges", "point": {"lon": 2.352761745452881, "lat": 48.852760314941406}}}, {"tfidf_total": 0.1637066935159261, "poi": {"xid": "W78327541", "name": "Pont Notre-Dame", "dist": 307.01651211, "rate": 3, "osm": "way/78327541", "wikidata": "Q1061959", "kinds": "bridges,architecture,interesting_places,stone_bridges", "point": {"lon": 2.3486111164093018, "lat": 48.85616683959961}}}, {"tfidf_total": 0.1637066935159261, "poi": {"xid": "Q21077839", "name": "\u00e9glise Saint-Barth\u00e9lemy de Paris", "dist": 311.6599292, "rate": 3, "wikidata": "Q21077839", "kinds": "religion,churches,interesting_places,other_churches", "point": {"lon": 2.3466668128967285, "lat": 48.8558349609375}}}, {"tfidf_total": 0.1637066935159261, "poi": {"xid": "Q3527684", "name": "Th\u00e9\u00e2tre de la Cit\u00e9-Vari\u00e9t\u00e9s", "dist": 314.26847887, "rate": 3, "wikidata": "Q3527684", "kinds": "architecture,historic_architecture,theatres_and_entertainments,cultural,interesting_places,destroyed_objects,other_theatres", "point": {"lon": 2.346522092819214, "lat": 48.855804443359375}}}, {"tfidf_total": 0.1637066935159261, "poi": {"xid": "W78328158", "name": "Pont Saint-Michel", "dist": 317.64426293, "rate": 3, "osm": "way/78328158", "wikidata": "Q1329076", "kinds": "bridges,architecture,interesting_places,stone_bridges", "point": {"lon": 2.3445749282836914, "lat": 48.85403060913086}}}, {"tfidf_total": 0.1637066935159261, "poi": {"xid": "R3344870", "name": "Sainte-Chapelle", "dist": 355.88232188, "rate": 7, "osm": "relation/3344870", "wikidata": "Q193193", "kinds": "religion,churches,cultural,museums,interesting_places,other_museums,catholic_churches", "point": {"lon": 2.344994068145752, "lat": 48.85539245605469}}}, {"tfidf_total": 0.1637066935159261, "poi": {"xid": "N2183872370", "name": "Tour de l'Horloge", "dist": 362.32190604, "rate": 3, "osm": "node/2183872370", "wikidata": "Q3533566", "kinds": "towers,architecture,interesting_places,clock_towers", "point": {"lon": 2.3462326526641846, "lat": 48.85619354248047}}}, {"tfidf_total": 0.1637066935159261, "poi": {"xid": "W53582123", "name": "Pont au Change", "dist": 407.29279697, "rate": 3, "osm": "way/53582123", "wikidata": "Q1327827", "kinds": "stone_bridges,bridges,interesting_places,architecture", "point": {"lon": 2.3468897342681885, "lat": 48.856849670410156}}}, {"tfidf_total": 0.1637066935159261, "poi": {"xid": "Q2047247", "name": "Palais de la Cit\u00e9", "dist": 407.95703687, "rate": 3, "wikidata": "Q2047247", "kinds": "palaces,architecture,historic_architecture,interesting_places", "point": {"lon": 2.345555543899536, "lat": 48.856388092041016}}}, {"tfidf_total": 0.1637066935159261, "poi": {"xid": "W145298932", "name": "Pont Louis-Philippe", "dist": 413.72728163, "rate": 3, "osm": "way/145298932", "wikidata": "Q1196667", "kinds": "bridges,architecture,interesting_places,stone_bridges", "point": {"lon": 2.3544015884399414, "lat": 48.85383224487305}}}, {"tfidf_total": 0.1637066935159261, "poi": {"xid": "W22972090", "name": "Pont Louis Tomlinson", "dist": 417.78722469, "rate": 2, "osm": "way/22972090", "kinds": "bridges,architecture,interesting_places,other_bridges", "point": {"lon": 2.354449987411499, "lat": 48.8538703918457}}}, {"tfidf_total": 0.1637066935159261, "poi": {"xid": "Q16303596", "name": "Couvent des mathurins", "dist": 417.85879625, "rate": 3, "wikidata": "Q16303596", "kinds": "religion,architecture,historic_architecture,monasteries,interesting_places,destroyed_objects", "point": {"lon": 2.345020055770874, "lat": 48.85060119628906}}}, {"tfidf_total": 0.1637066935159261, "poi": {"xid": "Q16510496", "name": "pont Marchand", "dist": 423.85747643, "rate": 3, "wikidata": "Q16510496", "kinds": "architecture,bridges,interesting_places,stone_bridges", "point": {"lon": 2.3461599349975586, "lat": 48.8568000793457}}}, {"tfidf_total": 0.1637066935159261, "poi": {"xid": "Q1230964", "name": "Saint-Andr\u00e9-des-Arts Church", "dist": 443.70414999, "rate": 3, "wikidata": "Q1230964", "kinds": "religion,churches,interesting_places,other_churches", "point": {"lon": 2.342777729034424, "lat": 48.85305404663086}}}, {"tfidf_total": 0.1637066935159261, "poi": {"xid": "Q55280667", "name": "commanderie de Saint-Jean de Latran", "dist": 446.84666337, "rate": 3, "wikidata": "Q55280667", "kinds": "architecture,historic_architecture,interesting_places,manor_houses", "point": {"lon": 2.3463900089263916, "lat": 48.8497200012207}}}, {"tfidf_total": 0.1637066935159261, "poi": {"xid": "Q60343186", "name": "Chapelle de l'H\u00f4tel de Cluny", "dist": 467.01462697, "rate": 2, "wikidata": "Q60343186", "kinds": "religion,churches,interesting_places,other_churches", "point": {"lon": 2.344024896621704, "lat": 48.85063552856445}}}, {"tfidf_total": 0.1637066935159261, "poi": {"xid": "Q167567", "name": "Church Saint-Jean-en-Gr\u00e8ve", "dist": 469.48288741, "rate": 3, "wikidata": "Q167567", "kinds": "religion,churches,interesting_places,other_churches", "point": {"lon": 2.3533332347869873, "lat": 48.856388092041016}}}, {"tfidf_total": 0.1637066935159261, "poi": {"xid": "Q27781222", "name": "Chapelle dor\u00e9e of \u00c9glise Saint-Gervais-Saint-Protais", "dist": 478.01850919, "rate": 3, "wikidata": "Q27781222", "kinds": "religion,churches,interesting_places,other_churches", "point": {"lon": 2.3544440269470215, "lat": 48.85555648803711}}}, {"tfidf_total": 0.1637066935159261, "poi": {"xid": "Q65094843", "name": "\u00e9glise Saint-Leufroy de Paris", "dist": 483.96164922, "rate": 3, "wikidata": "Q65094843", "kinds": "religion,churches,interesting_places,other_churches", "point": {"lon": 2.347249984741211, "lat": 48.85763931274414}}}, {"tfidf_total": 0.1637066935159261, "poi": {"xid": "Q2939555", "name": "Carmel de la place Maubert", "dist": 484.18987995, "rate": 3, "wikidata": "Q2939555", "kinds": "religion,architecture,historic_architecture,monasteries,interesting_places,destroyed_objects", "point": {"lon": 2.3502776622772217, "lat": 48.84916687011719}}}, {"tfidf_total": 0.1637066935159261, "poi": {"xid": "W43877261", "name": "Saint-Nicolas-du-Chardonnet", "dist": 488.07232552, "rate": 7, "osm": "way/43877261", "wikidata": "Q1577630", "kinds": "religion,churches,interesting_places,catholic_churches", "point": {"lon": 2.3503127098083496, "lat": 48.84913635253906}}}, {"tfidf_total": 0.1637066935159261, "poi": {"xid": "W55477164", "name": "St-Gervais-et-St-Protais", "dist": 491.65372808, "rate": 7, "osm": "way/55477164", "wikidata": "Q427340", "kinds": "religion,churches,interesting_places,catholic_churches", "point": {"lon": 2.35469651222229, "lat": 48.85551071166992}}}, {"tfidf_total": 0.1637066935159261, "poi": {"xid": "W20326709", "name": "Saint-Jacques Tower", "dist": 510.87013225, "rate": 7, "osm": "way/20326709", "wikidata": "Q1431547", "kinds": "towers,architecture,interesting_places,other_towers", "point": {"lon": 2.348921775817871, "lat": 48.858001708984375}}}, {"tfidf_total": 0.1637066935159261, "poi": {"xid": "Q167029", "name": "\u00c9glise Saint-Jacques-de-la-Boucherie", "dist": 516.6597005, "rate": 3, "wikidata": "Q167029", "kinds": "religion,churches,interesting_places,other_churches", "point": {"lon": 2.348888874053955, "lat": 48.858055114746094}}}, {"tfidf_total": 0.1637066935159261, "poi": {"xid": "Q3461874", "name": "\u00c9glise Saint-Beno\u00eet-le-B\u00e9tourn\u00e9", "dist": 544.66625559, "rate": 3, "wikidata": "Q3461874", "kinds": "religion,churches,interesting_places,other_churches", "point": {"lon": 2.344444513320923, "lat": 48.84944534301758}}}, {"tfidf_total": 0.1637066935159261, "poi": {"xid": "W55359253", "name": "Centre culturel irlandais de Paris", "dist": 567.89761333, "rate": 7, "osm": "way/55359253", "wikidata": "Q22924404", "kinds": "religion,churches,interesting_places,catholic_churches", "point": {"lon": 2.3476991653442383, "lat": 48.84835433959961}}}, {"tfidf_total": 0.1637066935159261, "poi": {"xid": "Q3584726", "name": "\u00c9glise Saint-\u00c9phrem-le-Syriaque", "dist": 573.17629539, "rate": 7, "wikidata": "Q3584726", "kinds": "religion,churches,interesting_places,other_churches", "point": {"lon": 2.3477799892425537, "lat": 48.84830093383789}}}, {"tfidf_total": 0.1637066935159261, "poi": {"xid": "W183595692", "name": "Tournelle Bridge", "dist": 578.26884097, "rate": 3, "osm": "way/183595692", "wikidata": "Q513655", "kinds": "bridges,architecture,interesting_places,stone_bridges", "point": {"lon": 2.3554439544677734, "lat": 48.85061264038086}}}, {"tfidf_total": 0.1637066935159261, "poi": {"xid": "Q22683742", "name": "H\u00f4tel du Chevalier-du-Guet", "dist": 586.27368475, "rate": 3, "wikidata": "Q22683742", "kinds": "architecture,historic_architecture,interesting_places,destroyed_objects", "point": {"lon": 2.3465681076049805, "lat": 48.85847091674805}}}, {"tfidf_total": 0.14386836567877664, "poi": {"xid": "W159896046", "name": "Archeological crypt of the \u00eele de la Cit\u00e9", "dist": 46.56821392, "rate": 3, "osm": "way/159896046", "wikidata": "Q3005760", "kinds": "historic,archaeology,cultural,museums,interesting_places,other_museums,other_archaeological_sites", "point": {"lon": 2.348198175430298, "lat": 48.85354232788086}}}, {"tfidf_total": 0.14386836567877664, "poi": {"xid": "Q2942462", "name": "Ancienne cath\u00e9drale Saint-\u00c9tienne de Paris", "dist": 75.80779247, "rate": 3, "wikidata": "Q2942462", "kinds": "religion,cathedrals,interesting_places", "point": {"lon": 2.349720001220703, "lat": 48.85309982299805}}}, {"tfidf_total": 0.14386836567877664, "poi": {"xid": "Q63762324", "name": "Cath\u00e9drale primitive Notre-Dame de Paris", "dist": 77.93146421, "rate": 3, "wikidata": "Q63762324", "kinds": "religion,cathedrals,interesting_places", "point": {"lon": 2.349720001220703, "lat": 48.85306167602539}}}, {"tfidf_total": 0.14386836567877664, "poi": {"xid": "R6551963", "name": "", "dist": 100.3139961, "rate": 0, "osm": "relation/6551963", "kinds": "religion,cathedrals,interesting_places", "point": {"lon": 2.3498518466949463, "lat": 48.85283279418945}}}, {"tfidf_total": 0.14386836567877664, "poi": {"xid": "Q73014457", "name": "Maison des \u00c9tudiants", "dist": 180.99664141, "rate": 6, "wikidata": "Q73014457", "kinds": "historic,historical_places,interesting_places,historic_settlements", "point": {"lon": 2.3484489917755127, "lat": 48.85179901123047}}}, {"tfidf_total": 0.14386836567877664, "poi": {"xid": "Q1972070", "name": "Battle of Lutetia", "dist": 389.3071263, "rate": 2, "wikidata": "Q1972070", "kinds": "battlefields,historic,historical_places,interesting_places", "point": {"lon": 2.3499999046325684, "lat": 48.849998474121094}}}, {"tfidf_total": 0.14386836567877664, "poi": {"xid": "Q4870221", "name": "Battle of Agendicum", "dist": 389.3071263, "rate": 2, "wikidata": "Q4870221", "kinds": "battlefields,historic,historical_places,interesting_places", "point": {"lon": 2.3499999046325684, "lat": 48.849998474121094}}}, {"tfidf_total": 0.14386836567877664, "poi": {"xid": "Q938511", "name": "Battle of Montmartre", "dist": 417.50985426, "rate": 2, "wikidata": "Q938511", "kinds": "battlefields,historic,historical_places,interesting_places", "point": {"lon": 2.351799964904785, "lat": 48.85660171508789}}}, {"tfidf_total": 0.14386836567877664, "poi": {"xid": "Q3485975", "name": "Siege of Paris", "dist": 418.67488817, "rate": 2, "wikidata": "Q3485975", "kinds": "battlefields,historic,historical_places,interesting_places", "point": {"lon": 2.351830005645752, "lat": 48.85660171508789}}}, {"tfidf_total": 0.14386836567877664, "poi": {"xid": "Q2889171", "name": "bataille de Lut\u00e8ce", "dist": 418.67488817, "rate": 2, "wikidata": "Q2889171", "kinds": "battlefields,historic,historical_places,interesting_places", "point": {"lon": 2.351830005645752, "lat": 48.85660171508789}}}, {"tfidf_total": 0.14386836567877664, "poi": {"xid": "Q3485979", "name": "Siege of Paris", "dist": 418.67488817, "rate": 2, "wikidata": "Q3485979", "kinds": "battlefields,historic,historical_places,interesting_places", "point": {"lon": 2.351830005645752, "lat": 48.85660171508789}}}, {"tfidf_total": 0.14386836567877664, "poi": {"xid": "Q3485978", "name": "Siege of Paris", "dist": 418.67488817, "rate": 2, "wikidata": "Q3485978", "kinds": "battlefields,historic,historical_places,interesting_places", "point": {"lon": 2.351830005645752, "lat": 48.85660171508789}}}, {"tfidf_total": 0.14386836567877664, "poi": {"xid": "Q3485982", "name": "Siege of Paris", "dist": 418.67488817, "rate": 3, "wikidata": "Q3485982", "kinds": "battlefields,historic,historical_places,interesting_places", "point": {"lon": 2.351830005645752, "lat": 48.85660171508789}}}, {"tfidf_total": 0.14386836567877664, "poi": {"xid": "Q3485976", "name": "Siege of Paris", "dist": 436.56072986, "rate": 2, "wikidata": "Q3485976", "kinds": "battlefields,historic,historical_places,interesting_places", "point": {"lon": 2.351388931274414, "lat": 48.8569450378418}}}, {"tfidf_total": 0.14386836567877664, "poi": {"xid": "Q3485986", "name": "Siege of Paris", "dist": 436.56072986, "rate": 3, "wikidata": "Q3485986", "kinds": "battlefields,historic,historical_places,interesting_places", "point": {"lon": 2.351388931274414, "lat": 48.8569450378418}}}, {"tfidf_total": 0.14386836567877664, "poi": {"xid": "Q690489", "name": "Siege of Paris", "dist": 436.56072986, "rate": 3, "wikidata": "Q690489", "kinds": "battlefields,historic,historical_places,interesting_places", "point": {"lon": 2.351388931274414, "lat": 48.8569450378418}}}]